[{"_id":"55f52cc3421fa41100f3e128","bId":"33","sId":"2","sName":"SPRINGFIELD","bName":"SPRINGFIELD","bCategory":"پوشاک","bDistributor":"کاسپین مد","sCity":"تهران","sAddress":"بلوار فردوس غرب، بهارجنوبی، فروشگاه هایپراستار (سیتی استار)","sHours":"9~24","sAreaCode":"021","sTel1":"44167112","sTel2":"","sLat":"35.725269","sLong":"51.295983","sVerified":"YES"},{"_id":"55f428a5032ead1100a3cbc6","bId":"28","sId":"1","sName":"VERSACE","bName":"VERSACE","bCategory":"پوشاک","bDistributor":"","sCity":"تهران","sAddress":"اشرفی اصفهانی مرکز خرید تیراژه طبقه همکف واحد 23 ","sHours":"10~22","sAreaCode":"021","sTel1":"44492324","sTel2":"","sLat":"35.7483463","sLong":"51.3308655","sVerified":"NO"},{"_id":"55f4292d032ead1100a3cbc7","bId":"28","sId":"2","sName":"VERSACE","bName":"VERSACE","bCategory":"پوشاک","bDistributor":"","sCity":"تهران","sAddress":"ولنجک بلوار دانشجو نبش گلستان دوم مجتمع تجاری ولنجک واحد 1 ","sHours":"10~22","sAreaCode":"021","sTel1":"22171805","sTel2":"","sLat":"35.8074058","sLong":"51.393337","sVerified":"NO"},{"_id":"55f42977032ead1100a3cbc8","bId":"28","sId":"3","sName":"VERSACE","bName":"VERSACE","bCategory":"پوشاک","bDistributor":"","sCity":"تهران","sAddress":"سعادت آباد بالا تر از میدان کاج نبش خیابان ششم پاساژ مادر واحد 11","sHours":"10~22","sAreaCode":"021","sTel1":"22356094","sTel2":"","sLat":"35.7849082","sLong":"51.3739464","sVerified":"NO"},{"_id":"55f429d9032ead1100a3cbc9","bId":"28","sId":"4","sName":"VERSACE","bName":"VERSACE","bCategory":"پوشاک","bDistributor":"","sCity":"تهران","sAddress":"شهرک غرب (قدس)، بلوار فرحزادی، مجتمع تجاری میلاد نور، طبقه دوم، واحد 39 ","sHours":"10~22","sAreaCode":"021","sTel1":"88089958","sTel2":"","sLat":"35.7533858","sLong":"51.3625629","sVerified":"NO"},{"_id":"55f42b5d032ead1100a3cbca","bId":"29","sId":"1","sName":"bossini","bName":"bossini","bCategory":"پوشاک","bDistributor":"","sCity":"تهران","sAddress":"شهرک غرب مرکز خرید گلستان شماره 133 ","sHours":"10~22","sAreaCode":"021","sTel1":"88094273","sTel2":"","sLat":"35.7534279","sLong":"51.3748598","sVerified":"NO"},{"_id":"55f42b9d032ead1100a3cbcb","bId":"29","sId":"2","sName":"bossini","bName":"bossini","bCategory":"پوشاک","bDistributor":"","sCity":"تهران","sAddress":"خیابان میرداماد میدان مادر خیابان شاه نظری شماره 37 ","sHours":"10~22","sAreaCode":"021","sTel1":"22226747","sTel2":"","sLat":"35.7578416","sLong":"51.4425742","sVerified":"NO"},{"_id":"55f42bd2032ead1100a3cbcc","bId":"29","sId":"3","sName":"bossini","bName":"bossini","bCategory":"پوشاک","bDistributor":"","sCity":"تهران","sAddress":"خیابان پاسداران بین بوستان نهم و دهم","sHours":"10~22","sAreaCode":"021","sTel1":"22567889","sTel2":"","sLat":"35.7685223","sLong":"51.4606354","sVerified":"NO"},{"_id":"55f42c29032ead1100a3cbcd","bId":"29","sId":"4","sName":"bossini","bName":"bossini","bCategory":"پوشاک","bDistributor":"","sCity":"تهران","sAddress":"خیابان ولیعصر مرکز خرید صفویه طبقه همکف شماره 1 ","sHours":"10~22","sAreaCode":"021","sTel1":"22059278","sTel2":"","sLat":"35.7776393","sLong":"51.4134869","sVerified":"NO"},{"_id":"55f42c83032ead1100a3cbce","bId":"29","sId":"5","sName":"bossini","bName":"bossini","bCategory":"پوشاک","bDistributor":"","sCity":"تهران","sAddress":"خیابان ولیعصر نبش خیابان مستوفی 932 ","sHours":"10~22","sAreaCode":"021","sTel1":"88718448","sTel2":"","sLat":"35.728182","sLong":"51.413096","sVerified":"NO"},{"_id":"55f42d8e032ead1100a3cbd1","bId":"30","sId":"1","sName":"Mussimo Dutti","bName":"Massimo Dutti","bCategory":"پوشاک","bDistributor":"","sCity":"تهران","sAddress":"مجتمع ایران زمین ط. زیر همکف واحد 11 ","sHours":"10~22","sAreaCode":"021","sTel1":"88070277","sTel2":"","sLat":"35.752873","sLong":"51.373373","sVerified":"NO"},{"_id":"55f42de1032ead1100a3cbd2","bId":"30","sId":"2","sName":"Mussimo Dutti","bName":"Massimo Dutti","bCategory":"پوشاک","bDistributor":"","sCity":"تهران","sAddress":"ولنجک خ. چهاردهم پاساژ توچال ","sHours":"10~22","sAreaCode":"021","sTel1":"22172616","sTel2":"","sLat":"35.8063115","sLong":"51.4012504","sVerified":"NO"},{"_id":"55f42e3c032ead1100a3cbd3","bId":"30","sId":"3","sName":"Mussimo Dutti","bName":"Massimo Dutti","bCategory":"پوشاک","bDistributor":"","sCity":"تهران","sAddress":"پاسداران بین بوستان ششم و هفت پ. 247 ","sHours":"10~22","sAreaCode":"021","sTel1":"22172616","sTel2":"","sLat":"35.7668503","sLong":"51.4572426","sVerified":"NO"},{"_id":"55f42eaf032ead1100a3cbd4","bId":"30","sId":"4","sName":"Mussimo Dutti","bName":"Massimo Dutti","bCategory":"پوشاک","bDistributor":"","sCity":"تهران","sAddress":"بلوار ارتش ، پاساژ الماس ایران ","sHours":"10~22","sAreaCode":"021","sTel1":"22957824","sTel2":"","sLat":"35.7882939","sLong":"51.5051352","sVerified":"NO"},{"_id":"55f42fb4032ead1100a3cbd5","bId":"30","sId":"5","sName":"Mussimo Dutti","bName":"Massimo Dutti","bCategory":"پوشاک","bDistributor":"","sCity":"تهران","sAddress":"خیابان ولیعصر روبروی پارک ملت نبش ناهید ","sHours":"10~22","sAreaCode":"021","sTel1":"26219939","sTel2":"","sLat":"35.7786717","sLong":"51.4140888","sVerified":"NO"},{"_id":"55f43108032ead1100a3cbd6","bId":"31","sId":"1","sName":"ZARA","bName":"ZARA","bCategory":"پوشاک","bDistributor":"","sCity":"تهران","sAddress":"شهرک غرب - پاساژ گلستان - طبقه اول - پلاک 224 ","sHours":"10~22","sAreaCode":"021","sTel1":"88098797","sTel2":"","sLat":"35.753423","sLong":"51.374875","sVerified":"NO"},{"_id":"55f5093b421fa41100f3e0ef","bId":"32","sId":"1","sName":"فروشگاه طلوع","bName":"swatch","bCategory":"ساعت","bDistributor":"شرکت بازرگانی کیش بهین","sCity":"تهران","sAddress":"ناصر خسرو ـ بازارچه مروي ـ شماره 137 ","sHours":"","sAreaCode":"021","sTel1":"33920810","sTel2":"","sLat":"35.6834488","sLong":"51.4234109","sVerified":"YES"},{"_id":"55f50995421fa41100f3e0f1","bId":"32","sId":"2","sName":"فروشگاه ساعت شفيع","bName":"swatch","bCategory":"ساعت","bDistributor":"شرکت بازرگانی کیش بهین","sCity":"تهران","sAddress":"بلوار ميرداماد ـ مرگانی کیش بهین","sCity":"تهران","sAddress":"بلوار ميرداماد ـ ميدان محسني ـ پاساژ محسني ـ پلاك 28","sHours":"","sAreaCode":"021","sTel1":"22279157","sTel2":"","sLat":"35.7583475","sLong":"51.4428777","sVerified":"YES"},{"_id":"55f509e6421fa41100f3e0f2","bId":"32","sId":"3","sName":"ساعت نگين","bName":"swatch","bCategory":"ساعت","bDistributor":"شرکت بازرگانی کیش بهین","sCity":"تهران","sAddress":"سهروردي جنوبي ـ روبروي خيابان اورامان ـ نبش كوچه لاله ـ پلاك 10","sHours":"","sAreaCode":"021","sTel1":"88419924","sTel2":"","sLat":"35.7215011","sLong":"51.4348973","sVerified":"YES"},{"_id":"55f5158c421fa41100f3e0f3","bId":"32","sId":"4","sName":"ساعت شبنم","bName":"swatch","bCategory":"ساعت","bDistributor":"شرکت بازرگانی کیش بهین","sCity":"تهران","sAddress":"صادقيه ـ بين فلكه اول و دوم ـ نبش پاساژ شبنم","sHours":"","sAreaCode":"021","sTel1":"44232281","sTel2":"","sLat":"35.7220739","sLong":"51.337663","sVerified":"YES"},{"_id":"55f515f3421fa41100f3e0f4","bId":"32","sId":"5","sName":"نمایشگاه گاندی","bName":"swatch","bCategory":"ساعت","bDistributor":"شرکت بازرگانی کیش بهین","sCity":"تهران","sAddress":"گاندي ـ بعد از خيابان 20 ـ شماره 100","sHours":"","sAreaCode":"021","sTel1":"88883828","sTel2":"","sLat":"35.7565862","sLong":"51.411712","sVerified":"YES"},{"_id":"55f51634421fa41100f3e0f5","bId":"32","sId":"6","sName":"برومند","bName":"swatch","bCategory":"ساعت","bDistributor":"شرکت بازرگانی کیش بهین","sCity":"تهران","sAddress":"شهرك غرب ـ بلوار فرحزادي ـ مجتمع ميلاد نور ـ طبقه سوم ـ واحد6","sHours":"","sAreaCode":"021","sTel1":"88085014","sTel2":"","sLat":"35.753415","sLong":"51.3626558","sVerified":"YES"},{"_id":"55f5167e421fa41100f3e0f6","bId":"32","sId":"7","sName":"رادمنش","bName":"swatch","bCategory":"ساعت","bDistributor":"شرکت بازرگانی کیش بهین","sCity":"تهران","sAddress":"ميدان وليعصر ـ جنب سينما قدس ـ پلاك 512","sHours":"","sAreaCode":"021","sTel1":"88891800","sTel2":"","sLat":"35.7110201","sLong":"51.4067553","sVerified":"YES"},{"_id":"55f516b2421fa41100f3e0f7","bId":"32","sId":"8","sName":"فروشگاه گنجينه ساعت","bName":"swatch","bCategory":"ساعت","bDistributor":"شرکت بازرگانی کیش بهین","sCity":"تهران","sAddress":"تجريش ـ بازار قائم ـ طبقه طلا ـ پلاك 196 ","sHours":"","sAreaCode":"021","sTel1":"22714523","sTel2":"","sLat":"35.8056194","sLong":"51.4303341","sVerified":"YES"},{"_id":"55f516e0421fa41100f3e0f8","bId":"32","sId":"9","sName":"حسینیان","bName":"swatch","bCategory":"ساعت","bDistributor":"شرکت بازرگانی کیش بهین","sCity":"تهران","sAddress":"فلكه اول تهرانپارس ـ ضلع شرقي ـ پلاك77","sHours":"","sAreaCode":"021","sTel1":"77877965","sTel2":"","sLat":"35.7268618","sLong":"51.5255269","sVerified":"YES"},{"_id":"55f51716421fa41100f3e0f9","bId":"32","sId":"10","sName":"گالري ساعت صبوري","bName":"swatch","bCategory":"ساعت","bDistributor":"شرکت بازرگانی کیش بهین","sCity":"تهران","sAddress":"الاتر از ميدان اختياريه ـ چهارراه داور ـ ابتداي شهيد تسليمي (داور) ـ پلاك 68 ","sHours":"","sAreaCode":"021","sTel1":"22587392","sTel2":"","sLat":"35.7880387","sLong":"51.4666346","sVerified":"YES"},{"_id":"55f51752421fa41100f3e0fa","bId":"32","sId":"11","sName":"زعفرانی","bName":"swatch","bCategory":"ساعت","bDistributor":"شرکت بازرگانی کیش بهین","sCity":"تهران","sAddress":"ميدان آرژانتين ـ نبش خيابان الوند ـ پلاك 82","sHours":"","sAreaCode":"021","sTel1":"88792595","sTel2":"","sLat":"35.7374293","sLong":"51.415203","sVerified":"YES"},{"_id":"55f518bc421fa41100f3e0fc","bId":"32","sId":"12","sName":"خانلو","bName":"swatch","bCategory":"ساعت","bDistributor":"شرکت بازرگانی کیش بهین","sCity":"تهران","sAddress":"پانزده خرداد ـ بازار بزرگ تهران ـ جنب پاساژ قيصريه ـ پلاك 109","sHours":"","sAreaCode":"021","sTel1":"55619770","sTel2":"","sLat":"35.675526","sLong":"51.4209081","sVerified":"YES"},{"_id":"55f518f8421fa41100f3e0fd","bId":"32","sId":"13","sName":"طوری","bName":"swatch","bCategory":"ساعت","bDistributor":"شرکت بازرگانی کیش بهین","sCity":"تهران","sAddress":"شميران ـ خيابان شهيد كلاهدوز (دولت) ـ چهارراه قنات ـ خيابان شهيد برادران رحماني ـ پلاك 30","sHours":"","sAreaCode":"021","sTel1":"22555384","sTel2":"","sLat":"35.7804849","sLong":"51.453725","sVerified":"YES"},{"_id":"55f51968421fa41100f3e0fe","bId":"32","sId":"14","sName":"مومن","bName":"swatch","bCategory":"ساعت","bDistributor":"شرکت بازرگانی کیش بهین","sCity":"تهران","sAddress":"انقلاب ـ روبروي استاد نجف الهي (ويلا) ـ جنب بيمه دانا ـ پلاك 848","sHours":"","sAreaCode":"021","sTel1":"66713019","sTel2":"","sLat":"35.7012291","sLong":"51.4163954","sVerified":"YES"},{"_id":"55f519a4421fa41100f3e0ff","bId":"32","sId":"15","sName":"گالري الهي","bName":"swatch","bCategory":"ساعت","bDistributor":"شرکت بازرگانی کیش بهین","sCity":"تهران","sAddress":"ميدان هفت حوض ـ خيابان آيت ـ ايستگاه دفتر ـ پلاك 620","sHours":"","sAreaCode":"021","sTel1":"77937735","sTel2":"","sLat":"35.729994","sLong":"51.493493","sVerified":"YES"},{"_id":"55f51a27421fa41100f3e100","bId":"32","sId":"16","sName":"لطفی نیکچه","bName":"swatch","bCategory":"ساعت","bDistributor":"شرکت بازرگانی کیش بهین","sCity":"تهران","sAddress":"سعادت آباد ـ ميدان كاج ـ مجتمع تجاري سروستان ـ طبقه زيرين ـ شماره 3","sHours":"","sAreaCode":"021","sTel1":"22081396","sTel2":"","sLat":"35.7813392","sLong":"51.3755867","sVerified":"YES"},{"_id":"55f51a59421fa41100f3e101","bId":"32","sId":"17","sName":"گالری ساعت سوئیس","bName":"swatch","bCategory":"ساعت","bDistributor":"شرکت بازرگانی کیش بهین","sCity":"تهران","sAddress":"پاسداران - پایین تر از چتهران","sAddress":"پاسداران - پایین تر از چهارراه فرمانیه- مرکز خرید کوهستان پلاک 686","sHours":"","sAreaCode":"021","sTel1":"22800563","sTel2":"","sLat":"35.7969463","sLong":"51.475272","sVerified":"YES"},{"_id":"55f51a92421fa41100f3e102","bId":"32","sId":"18","sName":"فروشگاه قازاريان","bName":"swatch","bCategory":"ساعت","bDistributor":"شرکت بان","bName":"swatch","bCategory":"ساعت","bDistributor":"شرکت بازرگانی کیش بهین","sCity":"تهران","sAddress":"جمهوري ـ جنب ساختمان آلومينيوم ـ پلاك 89","sHours":"","sAreaCode":"021","sTel1":"66707968","sTel2":"","sLat":"35.695267","sLong":"51.407738","sVerified":"YES"},{"_id":"55f51ad3421fa41100f3e103","bId":"32","sId":"19","sName":"کاظمی","bName":"swatch","bCategory":"ساعت","bDistributor":"شرکت بازرگانی کیش بهین","sCity":"تهران","sAddress":"ميدان وليعصر ـ اول بلوار كشاورز ـ پلاك 4","sHours":"","sAreaCode":"021","sTel1":"88908929","sTel2":"","sLat":"35.711391","sLong":"51.406225","sVerified":"YES"},{"_id":"55f51b30421fa41100f3e104","bId":"32","sId":"20","sName":"لسانی","bName":"swatch","bCategory":"ساعت","bDistributor":"شرکت بازرگانی کیش بهین","sCity":"تهران","sAddress":"تجريش ـ روبروي بانك ملت ـ پلاك 234","sHours":"","sAreaCode":"021","sTel1":"22711699","sTel2":"","sLat":"35.803699","sLong":"51.433796","sVerified":"YES"},{"_id":"55f51d4c421fa41100f3e105","bId":"32","sId":"21","sName":"کاظمی","bName":"swatch","bCategory":"ساعت","bDistributor":"شرکت بازرگانی کیش بهین","sCity":"تهران","sAddress":"ميدان ونك ـ ابتداي وليعصر شمالي ـ جنب فروشگاه نوكيا ـ پلاك 1321/2 و 1321/3","sHours":"","sAreaCode":"021","sTel1":"88786272","sTel2":"","sLat":"35.7588194","sLong":"51.4098852","sVerified":"YES"},{"_id":"55f51d90421fa41100f3e106","bId":"32","sId":"22","sName":"نمایشگاه مطهری","bName":"swatch","bCategory":"ساعت","bDistributor":"شرکت بازرگانی کیش بهین","sCity":"تهران","sAddress":"مطهري ـ بعد از لارستان ـ پلاك 374","sHours":"","sAreaCode":"021","sTel1":"88911276","sTel2":"","sLat":"35.7234195","sLong":"51.4139075","sVerified":"YES"},{"_id":"55f51dbf421fa41100f3e107","bId":"32","sId":"23","sName":"نمايشگاه الوند","bName":"swatch","bCategory":"ساعت","bDistributor":"شرکت بازرگانی کیش بهین","sCity":"تهران","sAddress":"ميدان آرژانتين ـ نبش خيابان الوند","sHours":"","sAreaCode":"021","sTel1":"88792595","sTel2":"","sLat":"35.7374012","sLong":"51.415255","sVerified":"YES"},{"_id":"55f51dfd421fa41100f3e108","bId":"32","sId":"24","sName":"نمايشگاه نياوران","bName":"swatch","bCategory":"ساعت","bDistributor":"شرکت بازرگانی کیش بهین","sCity":"تهران","sAddress":"نياوران ـ سه راه ياسر ـ نبش امير سليماني ـ پلاك 229","sHours":"","sAreaCode":"021","sTel1":"22816246","sTel2":"","sLat":"35.8128702","sLong":"51.4550043","sVerified":"YES"},{"_id":"55f51e8c421fa41100f3e10a","bId":"32","sId":"26","sName":"فروشگاه برج ميلاد","bName":"swatch","bCategory":"ساعت","bDistributor":"شرکت بازرگانی کیش بهین","sCity":"تهران","sAddress":"برج ميلاد تهران ـ طبقه 4 تجاري ـ واحد 19","sHours":"","sAreaCode":"021","sTel1":"88620322","sTel2":"","sLat":"35.7446445","sLong":"51.3750718","sVerified":"YES"},{"_id":"55f51f29421fa41100f3e10c","bId":"32","sId":"28","sName":"فروشگاه خانلو","bName":"swatch","bCategory":"ساعت","bDistributor":"شرکت بازرگانی کیش بهین","sCity":"تهران","sAddress":"تهران پارس ـ فلكه دوم ـ مركز خريد پاسداران ـ طبقه همكف ـ پلاك 25","sHours":"","sAreaCode":"021","sTel1":"77708299","sTel2":"","sLat":"35.7344654","sLong":"51.5300627","sVerified":"YES"},{"_id":"55f51fdc421fa41100f3e10d","bId":"32","sId":"29","sName":"فروشگاه تتيس","bName":"swatch","bCategory":"ساعت","bDistributor":"شرکت بازرگانی کیش بهین","sCity":"تهران","sAddress":"ميدان ونك ـ خيابان ونك ـ مركز خريد ونك ـ طبقه همكف ـ پلاك بي 5","sHours":"","sAreaCode":"021","sTel1":"88790204","sTel2":"","sLat":"35.760292","sLong":"51.4049389","sVerified":"YES"},{"_id":"55f52016421fa41100f3e10e","bId":"32","sId":"30","sName":"سواچ استور مركزي","bName":"swatch","bCategory":"ساعت","bDistributor":"شرکت بازرگانی کیش بهین","sCity":"تهران","sAddress":"كوي نصر ـ نبش خيابان نهم ـ پلاك 132","sHours":"","sAreaCode":"021","sTel1":"88274325","sTel2":"","sLat":"35.7294581","sLong":"51.3788297","sVerified":"YES"},{"_id":"55f52057421fa41100f3e10f","bId":"32","sId":"31","sName":"سواچ استور ميرداماد","bName":"swatch","bCategory":"ساعت","bDistributor":"شرکت بازرگانی کیش بهین","sCity":"تهران","sAddress":"ميرداماد ـ ميدان محسني (مادر) ـ خيابان شهيد وزيري پور ـ پلاك 29","sHours":"","sAreaCode":"021","sTel1":"22272494","sTel2":"","sLat":"35.7581855","sLong":"51.4431499","sVerified":"YES"},{"_id":"55f520aa421fa41100f3e110","bId":"32","sId":"32","sName":"فروشگاه عباسلو","bName":"swatch","bCategory":"ساعت","bDistributor":"شرکت بازرگانی کیش بهین","sCity":"تهران","sAddress":"جمهوری ـ ساختمان آلومینیوم ـ طبقه 3 ـ واحد328","sHours":"","sAreaCode":"021","sTel1":"66710692","sTel2":"","sLat":"35.6949529","sLong":"51.4079878","sVerified":"YES"},{"_id":"55f520e1421fa41100f3e111","bId":"32","sId":"33","sName":"سواچ استور الماس","bName":"swatch","bCategory":"ساعت","bDistributor":"شرکت بازرگانی کیش بهین","sCity":"تهران","sAddress":"اقدسیه - بلوار ارتش - بلوار نیروی زمینی - مجتمع الماس ایران","sHours":"","sAreaCode":"021","sTel1":"22964359","sTel2":"","sLat":"35.7883649","sLong":"51.5048352","sVerified":"YES"},{"_id":"55f52110421fa41100f3e112","bId":"32","sId":"34","sName":"نمایشگاه سیتی استار","bName":"swatch","bCategory":"ساعت","bDistributor":"شرکت بازرگانی کیش بهین","sCity":"تهران","sAddress":"بزرگراه حکیم - برزگراه شهید باکری جنوب - مجتمع سیتی استار","sHours":"","sAreaCode":"021","sTel1":"44167017","sTel2":"","sLat":"35.7254657","sLong":"51.2948843","sVerified":"YES"},{"_id":"55f5214c421fa41100f3e113","bId":"32","sId":"35","sName":"نمایشگاه مهرآباد","bName":"swatch","bCategory":"ساعت","bDistributor":"شرکت بازرگانی کیش بهین","sCity":"نمایشگاه مهرآباد","sAddress":"فرودگاه مهرآباد - ترمینال 2","sHours":"","sAreaCode":"021","sTel1":"66073540","sTel2":"","sLat":"35.6913913","sLong":"51.321044","sVerified":"YES"},{"_id":"55f5217d421fa41100f3e114","bId":"32","sId":"36","sName":"گالرس ساعت کنز","bName":"swatch","bCategory":"ساعت","bDistributor":"شرکت بازرگانی کیش بهین","sCity":"تهران","sAddress":"میدان ونک - خیابان ونک - تقاطع کاروتجارت - مرکز خرید ونک - طبقه پایین - واحد 54","sHours":"","sAreaCode":"021","sTel1":"88773251","sTel2":"","sLat":"35.7600644","sLong":"51.4053684","sVerified":"YES"},{"_id":"55f522be421fa41100f3e115","bId":"32","sId":"37","sName":"فروشگاه زروان","bName":"swatch","bCategory":"ساعت","bDistributor":"شرکت بازرگانی کیش بهین","sCity":"تهران","sAddress":"ولیعصر - بالا تر از عباس آباد","sHours":"","sAreaCode":"021","sTel1":"88706635","sTel2":"","sLat":"35.7275779","sLong":"51.413435","sVerified":"YES"},{"_id":"55f522f4421fa41100f3e116","bId":"32","sId":"38","sName":"نمایشگاه تیراژه","bName":"swatch","bCategory":"ساعت","bDistributor":"شرکت بازرگانی کیش بهین","sCity":"تهران","sAddress":"اتوبان اشرفی ان","sCity":"تهران","sAddress":"اتوبان اشرفی اصفهانی- مرکزی خرید تیراژه - طبقه ان","sCity":"تهران","sAddress":"اتوبان اشرفی اصفهانی- مرکزی خرید تیراژه - طبقه اول - واحد 55","sHours":"","sAreaCode":"021","sTel1":"44492509","sTel2":"","sLat":"35.7482124","sLong":"51.3310607","sVerified":"YES"},{"_id":"55f3bf26032ead1100a3cb30","bId":"2","sId":"1","sName":"addidas","bName":"adidas","bCategory":"پوشاک ورزشی","bDistributor":"","sCity":"تهران","sAddress":"شریعتی-بین پل رومی و پل صدر- پلاک ۱۹۲۰","sHours":"","sAreaCode":"021","sTel1":"22631030","sTel2":"","sLat":"35.790493","sLong":"51.435261","sVerified":"YES"},{"_id":"55f3bfc4032ead1100a3cb31","bId":"2","sId":"2","sName":"addidas","bName":"adidas","bCategory":"پوشاک ورزشی","bDistributor":"","sCity":"تهران","sAddress":"جردن نبش بلوار صبا پلاک 119","sHours":"","sAreaCode":"021","sTel1":"22034471","sTel2":"","sLat":"35.771479","sLong":"51.420759","sVerified":"YES"},{"_id":"55f3c319032ead1100a3cb32","bId":"2","sId":"3","sName":"addidas","bName":"adidas","bCategory":"پوشاک ورزشی","bDistributor":"","sCity":"تهران","sAddress":"بالا تر از پل سید خندان روبروی پمپ بنزین","sHours":"","sAreaCode":"021","sTel1":"22886262","sTel2":"","sLat":"35.790327","sLong":"51.435247","sVerified":"YES"},{"_id":"55f3c381032ead1100a3cb33","bId":"2","sId":"4","sName":"addidas","bName":"adidas","bCategory":"پوشاک ورزشی","bDistributor":"","sCity":"تهران","sAddress":"شهرک غرب مجتمع تجاری میلاد نور طبقه ششم واحد 29","sHours":"","sAreaCode":"021","sTel1":"88370800","sTel2":"","sLat":"35.75331","sLong":"51.362522","sVerified":"YES"},{"_id":"55f3c3dd032ead1100a3cb34","bId":"2","sId":"5","sName":"addidas","bName":"adidas","bCategory":"پوشاک ورزشی","bDistributor":"","sCity":"تهران","sAddress":"خیابان شهید مدنی مجتمع تیراژه 2 طبقه همکف","sHours":"","sAreaCode":"021","sTel1":"77587710","sTel2":"","sLat":"35.708942","sLong":"51.451937","sVerified":"YES"},{"_id":"55f3c42b032ead1100a3cb35","bId":"2","sId":"6","sName":"addidas","bName":"adidas","bCategory":"پوشاک ورزشی","bDistributor":"","sCity":"تهران","sAddress":"خیابان نیاوران بعد از سه راه یاسر نبش کوچه هیراد","sHours":"","sAreaCode":"021","sTel1":"22814040","sTel2":"","sLat":"35.812515","sLong":"51.456602","sVerified":"YES"},{"_id":"55f3c464032ead1100a3cb36","bId":"2","sId":"7","sName":"addidas","bName":"adidas","bCategory":"پوشاک ورزشی","bDistributor":"","sCity":"تهران","sAddress":"ولیعصر بالاتر از میدان ونک برج نگار ","sHours":"","sAreaCode":"021","sTel1":"88641888","sTel2":"","sLat":"35.759912","sLong":"51.409647","sVerified":"YES"},{"_id":"55f3c4ad032ead1100a3cb37","bId":"2","sId":"8","sName":"addidas","bName":"adidas","bCategory":"پوشاک ورزشی","bDistributor":"","sCity":"تهران","sAddress":"اتوبان شهید ستاری جنوب ،بلوار فردوس غرب،خیابان بهار جنوبی،خیابان ارم شرقی،هایپر استار واحد 13","sHours":"","sAreaCode":"021","sTel1":"44167122","sTel2":"","sLat":"35.725439","sLong":"51.294948","sVerified":"YES"},{"_id":"55f3c730032ead1100a3cb38","bId":"3","sId":"1","sName":"benetton","bName":"Benetton","bCategory":"پوشاک","bDistributor":"کاسپین مد","sCity":"تهران","sAddress":"بلوار فردوس غرب، بهارجنوبی، فروشگاه هایپراستار (سیتی استابهارجنوبی، فروشگاه هایپراستار (سیتی استار)","sHours":"9~24","sAreaCode":"021","sTel1":"44167106","sTel2":"","sLat":"35.725439","sLong":"51.294948","sVerified":"YES"},{"_id":"55f3c7b2032ead1100a3cb39","bId":"3","sId":"2","sName":"benetton","bName":"Benetton","bCategory":"پوشاک","bDistributor":"کاسپین مد","sCity":"تهران","sAddress":"خیابان ولیعصر، بالاتر از میدان ونك، برج نگار، پلاك1335","sHours":"10~22","sAreaCode":"021","sTel1":"88642149","sTel2":"","sLat":"35.760084","sLong":"51.409854","sVerified":"YES"},{"_id":"55f3c806032ead1100a3cb3a","bId":"3","sId":"3","sName":"benetton","bName":"Benetton","bCategory":"پوشاک","bDistributor":"کاسپین مد","sCity":"تهران","sAddress":"خیابان آفریقا، نبش خیابان عاطفی، بعد از بانك پاسارگاد","sHours":"10~22","sAreaCode":"021","sTel1":"26200092","sTel2":"","sLat":"35.772206","sLong":"51.420724","sVerified":"YES"},{"_id":"55f3c853032ead1100a3cb3b","bId":"3","sId":"4","sName":"benetton","bName":"Benetton","bCategory":"پوشاک","bDistributor":"کاسپین مد","sCity":"تهران","sAddress":"ولیعصر،خیابان جام جم نبش خیابان پروین، پلاك 1472","sHours":"10~22","sAreaCode":"021","sTel1":"22029603","sTel2":"","sLat":"35.7811405","sLong":"51.4143017","sVerified":"YES"},{"_id":"55f3c8db032ead1100a3cb3c","bId":"3","sId":"5","sName":"benetton","bName":"Benetton","bCategory":"پوشاک","bDistributor":"کاسپین مد","sCity":"تهران","sAddress":"خیابان دولت، نبش بلوار كاوه، پلاك 259","sHours":"10~22","sAreaCode":"021","sTel1":"22574167","sTel2":"","sLat":"35.7797899","sLong":"51.4498783","sVerified":"YES"},{"_id":"55f3c98c032ead1100a3cb3d","bId":"3","sId":"6","sName":"benetton","bName":"Benetton","bCategory":"پوشاک","bDistributor":"کاسپین مد","sCity":"تهران","sAddress":"وشاک","bDistributor":"کاسپین مد","sCity":"تهران","sAddress":"مینی سیتی، بلوار ارتش، خیابان نیروی زمینی، پاساژ الماس، طبقه همکف","sHours":"10~22","sAreaCode":"021","sTel1":"22967806","sTel2":"","sLat":"35.7884024","sLong":"51.504689","sVerified":"YES"},{"_id":"55f3ce9d032ead1100a3cb44","bId":"4","sId":"1","sName":"GEOX","bName":"GEOX","bCategory":"کفش","bDistributor":"کاسپین مد","sCity":"تهران","sAddress":"جردن نبش بلوار صبا","sHours":"10~22","sAreaCode":"021","sTel1":"22055773","sTel2":"","sLat":"35.771336","sLong":"51.420747","sVerified":"YES"},{"_id":"55f3ceea032ead1100a3cb45","bId":"4","sId":"2","sName":"GEOX","bName":"GEOX","bCategory":"کفش","bDistributor":"کاسپین مد","sCity":"تهران","sAddress":"شریعتی،پایین تر از پل صدر روبروی پمپ بنزین پلاک 1639","sHours":"10~22","sAreaCode":"021","sTel1":"22611272","sTel2":"","sLat":"35.781297","sLong":"51.436431","sVerified":"YES"},{"_id":"55f3d0a8032ead1100a3cb46","bId":"4","sId":"3","sName":"GEOX","bName":"GEOX","bCategory":"کفش","bDistributor":"کاسپین مد","sCity":"تهران","sAddress":"خیابان پاسداران،بالاتر از سه راه اقدسیه جنب پارک نیاوران پلاک101","sHours":"10~22","sAreaCode":"021","sTel1":"22825252","sTel2":"","sLat":"35.806611","sLong":"51.472036","sVerified":"YES"},{"_id":"55f3d0fa032ead1100a3cb47","bId":"4","sId":"4","sName":"GEOX","bName":"GEOX","bCategory":"کفش","bDistributor":"کاسپین مد","sCity":"تهران","sAddress":"اتوبان شهید ستاری جنوب ،بلوار فردوس غرب،خیابان بهار جنوبی،خیابان ارم شرقی،هایپر استار","sHours":"9~24","sAreaCode":"021","sTel1":"44167127","sTel2":"","sLat":"35.725892","sLong":"51.295069","sVerified":"YES"},{"_id":"55f3d61e032ead1100a3cb4a","bId":"5","sId":"1","sName":"Adolfo Dominguez","bName":"Adolfo Dominguez","bCategory":"پوشاک","bDistributor":"کاسپین مد","sCity":"تهران","sAddress":"تهران بلوارآفریقا نبش بلتهران","sAddress":"تهران بلوارآفریقا نبش بلوار صبا","sHours":"10~22","sAreaCode":"021","sTel1":"22055680","sTel2":"","sLat":"35.771353","sLong":"51.420814","sVerified":"YES"},{"_id":"55f3ddd3032ead1100a3cb52","bId":"6","sId":"1","sName":"Sisley","bName":"Sisley","bCategory":"پوشاک","bDistributor":"کاسپین مد","sCity":"تهران","sAddress":"بلوار آفریقا،نبش کوچه گلدان","sHours":"10~22","sAreaCode":"021","sTel1":"26203296","sTel2":"","sLat":"35.781203","sLong":"51.422736","sVerified":"YES"},{"_id":"55f3de3a032ead1100a3cb53","bId":"6","sId":"2","sName":"Sisley","bName":"Sisley","bCategory":"پوشاک","bDistributor":"کاسپین مد","sCity":"تهران","sAddress":"خیابان دولت نبش بلوار كاوه","sHours":"10~22","sAreaCode":"021","sTel1":"22579660","sTel2":"","sLat":"35.779675","sLong":"51.449825","sVerified":"YES"},{"_id":"55f3de80032ead1100a3cb54","bId":"6","sId":"3","sName":"Sisley","bName":"Sisley","bCategory":"پوشاک","bDistributor":"کاسپین مد","sCity":"تهران","sAddress":"میدان ونک خیابان خدامی روبروی هتل هما ","sHours":"10~22","sAreaCode":"021","sTel1":"88665869","sTel2":"","sLat":"35.762228","sLong":"51.405606","sVerified":"YES"},{"_id":"55f3e02c032ead1100a3cb56","bId":"7","sId":"1","sName":"MANGO","bName":"MANGO","bCategory":"پوشاک بانوان","bDistributor":"Fashion Aria mode","sCity":"تهران","sAddress":"خیابان شریعتی ابتدای خیابان یخچال ","sHours":"10~22","sAreaCode":"021","sTel1":"22644676","sTel2":"","sLat":"35.771558","sLong":"51.439155","sVerified":"YES"},{"_id":"55f3e097032ead1100a3cb57","bId":"7","sId":"2","sName":"MANGO","bName":"MANGO","bCategory":"پوشاک بانوان","bDistributor":"Fashion Aria mode","sCity":"تهران","sAddress":"شهرک غرب (قدس)، بلوار فرحزادی","sHours":"10~22","sAreaCode":"021","sTel1":"88085094","sTel2":"","sLat":"35.7536848","sLong":"51.3628361","sVerified":"YES"},{"_id":"55f3e0ed032ead1100a3cb58","bId":"7","sId":"3","sName":"MANGO","bName":"MANGO","bCategory":"پوشاک بانوان","bDistributor":"Fashion Aria mode","sCity":"تهران","sAddress":"خیابان آفریقا نبش بلوار صبا ","sHours":"10~22","sAreaCode":"021","sTel1":"22017668","sTel2":"","sLat":"35.771738","sLong":"51.420752","sVerified":"YES"},{"_id":"55f3e134032ead1100a3cb59","bId":"7","sId":"4","sName":"MANGO","bName":"MANGO","bCategory":"پوشاک بانوان","bDistributor":"Fashion Aria mode","sCity":"تهران","sAddress":"بالاتر از میدان ونک روبروی هتل هما ","sHours":"10~22","sAreaCode":"021","sTel1":"88678832","sTel2":"","sLat":"35.760926","sLong":"51.404305","sVerified":"YES"},{"_id":"55f3e177032ead1100a3cb5a","bId":"7","sId":"5","sName":"MANGO","bName":"MANGO","bCategory":"پوشاک بانوان","bDistributor":"Fashion Aria mode","sCity":"تهران","sAddress":"بلوار فردوس غرب،خیابان بهار جنوبی،خیابان ارم شرقی،هایپر استار ","sHours":"10~22","sAreaCode":"021","sTel1":"44167055","sTel2":"","sLat":"35.7254218","sLong":"51.2950896","sVerified":"YES"},{"_id":"55f3e652032ead1100a3cb5e","bId":"8","sId":"1","sName":"Jeanwest","bName":"Jeanswest","bCategory":"پوشاک","bDistributor":"","sCity":"تهران","sAddress":"شهرک غرب مجتمع گلستان طبقه اول شماره 233 ","sHours":"10~22","sAreaCode":"021","sTel1":"88098797","sTel2":"","sLat":"35.7533381","sLong":"51.374654","sVerified":"NO"},{"_id":"55f3e697032ead1100a3cb5f","bId":"8","sId":"2","sName":"Jeanwest","bName":"Jeanswest","bCategory":"پوشاک","bDistributor":"","sCity":"تهران","sAddress":"بالاتر از میدان ونک ، مرکز خرید نگار،واحد8","sHours":"10~22","sAreaCode":"021","sTel1":"88641755","sTel2":"","sLat":"35.7602024","sLong":"51.409718","sVerified":"NO"},{"_id":"55f3e6d9032ead1100a3cb60","bId":"8","sId":"3","sName":"Jeanwest","bName":"Jeanswest","bCategory":"پوشاک","bDistributor":"","sCity":"تهران","sAddress":"خيابان ميرداماد میدان مادر خیابان شاه نظری پلاک 18 ","sHours":"10~22","sAreaCode":"021","sTel1":"22275321","sTel2":"","sLat":"35.7558311","sLong":"51.4421558","sVerified":"NO"},{"_id":"55f3e719032ead1100a3cb61","bId":"8","sId":"4","sName":"Jeanwest","bName":"Jeanswest","bCategory":"پوشاک","bDistributor":"","sCity":"تهران","sAddress":"میرداماد ، نرسیده به میدان مادر ، جنب بانک سامان ","sHours":"10~22","sAreaCode":"021","sTel1":"26403814","sTel2":"","sLat":"35.7587719","sLong":"51.4387156","sVerified":"NO"},{"_id":"55f3e75e032ead1100a3cb62","bId":"8","sId":"5","sName":"Jeanwest","bName":"Jeanswest","bCategory":"پوشاک","bDistributor":"","sCity":"تهران","sAddress":"خيابان پاسداران روبروی گلستان هشتم پلاک 386 ","sHours":"10~22","sAreaCode":"021","sTel1":"22575100","sTel2":"","sLat":"35.7730808","sLong":"51.4593102","sVerified":"NO"},{"_id":"55f3e824032ead1100a3cb63","bId":"8","sId":"6","sName":"Jeanwest","bName":"Jeanswest","bCategory":"پوشاک","bDistributor":"","sCity":"تهران","sAddress":"شهرک غرب مجتمع میلاد نور طبقه چهارم واحد 12 ","sHours":"10~22","sAreaCode":"021","sTel1":"88085036","sTel2":"","sLat":"35.7535204","sLong":"51.3624157","sVerified":"NO"},{"_id":"55f3e866032ead1100a3cb64","bId":"8","sId":"7","sName":"Jeanwest","bName":"Jeanswest","bCategory":"پوشاک","bDistributor":"","sCity":"تهران","sAddress":"نیاوران تقاطع کامرانیه مرکز خرید نارون واحد 8 ","sHours":"10~22","sAreaCode":"021","sTel1":"26103813","sTel2":"","sLat":"35.8115496","sLong":"51.4645209","sVerified":"NO"},{"_id":"55f3e89a032ead1100a3cb65","bId":"8","sId":"8","sName":"Jeanwest","bName":"Jeanswest","bCategory":"پوشاک","bDistributor":"","sCity":"تهران","sAddress":"پاسداران . خ امیر ابراهیمی . نبش بوستان دهم . ضلع شمالی بیمارستاراهیمی . نبش بوستان دهم . ضلع شمالی بیمارستان لبافی نژاد .پلاک ۲۹ ","sHours":"10~22","sAreaCode":"021","sTel1":"22782187","sTel2":"","sLat":"35.767865","sLong":"51.463073","sVerified":"NO"},{"_id":"55f3e902032ead1100a3cb66","bId":"8","sId":"9","sName":"Jeanwest","bName":"Jeanswest","bCategory":"پوشاک","bDistributor":"","sCity":"تهران","sAddress":"زعفرانیه، نرسیده به میدان الف، نبش کوچه عروضی، پالادیوم ،برج جنوبی، طبقه سوم، واحد شماره ۱","sHours":"10~22","sAreaCode":"021","sTel1":"22660295","sTel2":"","sLat":"35.798217","sLong":"51.413233","sVerified":"NO"},{"_id":"55f3e94b032ead1100a3cb67","bId":"8","sId":"10","sName":"Jeanwest","bName":"Jeanswest","bCategory":"پوشاک","bDistributor":"","sCity":"تهران","sAddress":"ابتدای شهرک اکباتان مگامال ","sHours":"10~22","sAreaCode":"021","sTel1":"44631719","sTel2":"","sLat":"35.7049739","sLong":"51.3085061","sVerified":"NO"},{"_id":"55f3ec6b032ead1100a3cb6e","bId":"9","sId":"1","sName":"FILA","bName":"FILA","bCategory":"پوشاک ورزشی","bDistributor":"","sCity":"تهران","sAddress":"خیابان شریعتی ، پایین تر از پل رومی روبروی مترو قیطریه ","sHours":"10~22","sAreaCode":"021","sTel1":"22001100","sTel2":"","sLat":"35.762815","sLong":"51.444536","sVerified":"NO"},{"_id":"55f3ed15032ead1100a3cb6f","bId":"9","sId":"2","sName":"FILA","bName":"FILA","bCategory":"پوشاک ورزشی","bDistributor":"","sCity":"تهران","sAddress":" نیاوران ، روبروی پمپ بنزین ","sHours":"10~22","sAreaCode":"021","sTel1":"22292060","sTel2":"","sLat":"35.81251","sLong":"51.456638","sVerified":"NO"},{"_id":"55f3eea5032ead1100a3cb73","bId":"10","sId":"1","sName":"TOMMY","bName":"TOMMY","bCategory":"پوشاک","bDistributor":"","sCity":"تهران","sAddress":"نیاوران، بین جماران و جمشیدیه ","sHours":"10~22","sAreaCode":"021","sTel1":"22810759","sTel2":"","sLat":"35.811899","sLong":"51.460224","sVerified":"NO"},{"_id":"55f3eedf032ead1100a3cb74","bId":"10","sId":"2","sName":"TOMMY","bName":"TOMMY","bCategory":"پوشاک","bDistributor":"","sCity":"تهران","sAddress":"شریعتی، تجریش ارگ تجریش ","sHours":"10~22","sAreaCode":"021","sTel1":"22396747","sTel2":"","sLat":"35.80796","sLong":"51.426498","sVerified":"NO"},{"_id":"55f3ef13032ead1100a3cb75","bId":"10","sId":"3","sName":"TOMMY","bName":"TOMMY","bCategory":"پوشاک","bDistributor":"","sCity":"تهران","sAddress":"شریعتی، پل صدر ","sHours":"10~22","sAreaCode":"021","sTel1":"22603636","sTel2":"","sLat":"35.782307","sLong":"51.435905","sVerified":"NO"}]