[{"_id":"55f52679421fa41100f3e11f","bId":"32","sId":"47","sName":"تهرانی","bName":"swatch","bCategory":"ساعت","bDistributor":"شرکت بازرگانی کیش بهین","sCity":"کرج","sAddress":"شهيد بهشتي ـ جهان شهر ـ روبروي مخابرات بين شهري ـ پلاك 1241","sHours":"","sAreaCode":"026","sTel1":"34414177","sTel2":"","sLat":"35.825564","sLong":"50.979639","sVerified":"YES"},{"_id":"55f526a8421fa41100f3e120","bId":"32","sId":"48","sName":"ساعت فروشي جواهريان","bName":"swatch","bCategory":"ساعت","bDistributor":"شرکت بازرگانی کیش بهین","sCity":"کرج","sAddress":"خيابان اصلي گوهردشت ـ بين چهارم و پنجم شرقي ـ پلاك 137 ","sHours":"","sAreaCode":"026","sTel1":"34476644","sTel2":"","sLat":"35.847887","sLong":"50.973634","sVerified":"YES"},{"_id":"55f52934421fa41100f3e122","bId":"32","sId":"50","sName":"فروشگاه عباسي","bName":"swatch","bCategory":"ساعت","bDistributor":"شرکت بازرگازرگانی کیازرگانی کیش بهین","sCity":"کرج","sAddress":"ابتداي خيابان شهيد بهشتي ـ جنب پاساژ فدك","sHours":"","sAreaCode":"026","sTel1":"32223225","sTel2":"","sLat":"35.812539","sLong":"51.006848","sVerified":"YES"},{"_id":"55f526fc421fa41100f3e121","bId":"32","sId":"49","sName":"گالري ساعت صدف","bName":"swatch","bCategory":"ساعت","bDistributor":"شرکت بازرگانی کیش بهیانی کیش بهین","sCity":"کرج","sAddress":" گلشهر ـ مركز تجاري اداري گلشهر ـ طبقه همكف ـ واحد45","sHours":"","sAreaCode":"026","sTel1":"33513188","sTel2":"","sLat":"35.8182187","sLong":"50.9361723","sVerified":"YES"},{"_id":"55f3ead9032ead1100a3cb6c","bId":"8","sId":"15","sName":"Jeanwest","bName":"Jeanswest","bCategory":"پوشاک","bDistributor":"","sCity":"کرج","sAddress":"میدان نبوت مرکز مهستان شماره 180 ","sHours":"10~22","sAreaCode":"026","sTel1":"32560180","sTel2":"","sLat":"35.8450816","sLong":"50.9900493","sVerified":"NO"},{"_id":"55f3f0c2032ead1100a3cb7c","bId":"10","sId":"10","sName":"TOMMY","bName":"TOMMY","bCategory":"پوشاک","bDistributor":"","sCity":"کرج","sAddress":" برج یادمان","sHours":"10~22","sAreaCode":"026","sTel1":"34205052","sTel2":"","sLat":"35.8306171","sLong":"50.9970761","sVerified":"NO"},{"_id":"55f67258a4a13b110061145e","bId":"37","sId":"33","sName":"تهرانی","bName":"ck","bCategory":"ساعت","bDistributor":"شرکت بازرگانی کیش بهین","sCity":"کرج","sAddress":"شهيد بهشتي ـ جهان شهر ـ روبروي مخابرات بين شهري ـ پلاك 1241","sHours":"","sAreaCode":"026","sTel1":"34414177","sTel2":"","sLat":"35.825564","sLong":"50.979639","sVerified":"YES"},{"_id":"55f6729fa4a13b110061145f","bId":"37","sId":"34","sName":"ساعت فروشي جعت فروشي جواهريان","bName":"ck","bCategory":"ساعت","bDistributor":"شرکت بازرگانی کیش بهین","sCity":"کرج","sAddress":"خيابان اصلي گوهردشت ـ بين چهارم و پنجم شرقي ـ پلاك 137 ","sHours":"","sAreaCode":"026","sTel1":"34476644","sTel2":"","sLat":"35.847887","sLong":"50.973634","sVerified":"YES"},{"_id":"55f67307a4a13b1100611460","bId":"37","sId":"35","sName":"گالري ساعت صدف","bName":"ck","bCategory":"ساعت","bDistributor":"شرکت بازرگانی کیش بهیهین","sCity":"کرج","sAddress":" گلشهر ـ مركز تجاري اداري گلشهر ـ طبقه همكف ـ واحد45","sHours":"","sAreaCode":"026","sTel1":"33513188","sTel2":"","sLat":"35.8182187","sLong":"50.9361723","sVerified":"YES"},{"_id":"55f67343a4a13b1100611461","bId":"37","sId":"36","sName":"فروشگاه عباسي","bName":"ck","bCategory":"ساعت","bDistributor":"شرکت بازرگانی کیش بهین","sCity":"کرج","sAddress":"ابتداي خيابان شهيد بهشتي ـ جنب پاساژ فدك","sHours":"","sAreaCode":"026","sTel1":"32223225","sTel2":"","sLat":"35.812539","sLong":"51.006848","sVerified":"YES"},{"_id":"55f6849aa4a13b110061147a","bId":"38","sId":"21","sName":"ساعت فروشي جواهريان","bName":"CERTINA","bCategory":"ساعت","bDistributor":"شرکت بازرگانی کیش بهین","sCity":"کرج","sAddress":"خيابان اصلي گوهردشت ـ بين چهارم و پنجم شرقي ـ پلاك 137 ","sHours":"","sAreaCode":"026","sTel1":"34476644","sTel2":"","sLat":"35.847887","sLong":"50.973634","sVerified":"YES"},{"_id":"55f68888a4a13b1100611487","bId":"38","sId":"34","sName":"ساعت فروشي جواهريان","bName":"CERTINA","bCategory":"ساعت","bDistributor":"شرکت بازرگانی کیش بهین","sCity":"کرج","sAddress":"خيابان اصلي گوهردشت ـ بين چهان اصلي گوهردشت ـ بين چهارم و پنجم ن اصلي گوهردشت ـ بين چهارم و پنجم شرقي ـ پلاك 137 ","sHours":"","sAreaCode":"026","sTel1":"34476644","sTel2":"","sLat":"35.847887","sLong":"50.973634","sVerified":"YES"},{"_id":"55f688bba4a13b1100611488","bId":"38","sId":"35","sName":"تهرانی","bName":"CERTINA","bCategory":"ساعت","bDistributor":"شرکت بازرگانی کیش بهین","sCity":"کرج","sAddress":"شهيد بهشتي ـ جهان شهر ـ روبروي مخابرات بين شهري ـ پلاك 1241","sHours":"","sAreaCode":"026","sTel1":"34414177","sTel2":"","sLat":"35.825564","sLong":"50.979639","sVerified":"YES"},{"_id":"55f688eea4a13b1100611489","bId":"38","sId":"36","sName":"گالري ساعت صدف","bName":"CERTINA","bCategory":"ساعت","bDistributor":"شرکت بازرگانی کیش بهین","sCity":"کرج","sAddress":" گلشهر ـ مركز تجاري اداري گلشهر ـ طـ طبقه همكف ـ واحد45","sHours":"","sAreaCode":"026","sTel1":"33513188","sTel2":"","sLat":"35.8182187","sLong":"50.9361723","sVerified":"YES"},{"_id":"55f7b0a254e630110066c581","bId":"41","sId":"27","sName":"ساعت فروشي جواهريان","bName":"TISSOT","bCategory":"ساعت","bDistributor":"شرکت بازرگانی کیش بهین","sCity":"کرج","sAddress":"خيابان اصلي گوهردشت ـ بين چهارم و پنجم شرقي ـ پلاك 137 ","sHours":"","sAreaCode":"026","sTel1":"34476644","sTel2":"","sLat":"35.847887","sLong":"50.973634","sVerified":"YES"},{"_id":"55f7b3e654e630110066c591","bId":"41","sId":"43","sName":"تهرانی","bName":"TISSOT","bCategory":"ساعت","bDistributor":"شرکت بازرگانی کیش بهین","sCity":"کرج","sAddress":"شهيد بهشتي ـ جهان شهر ـ روبروي مخابرات بين شهري ـ پلاك 1241","sHours":"","sAreaCode":"026","sTel1":"34414177","sTel2":"","sLat":"35.825564","sLong":"50.979639","sVerified":"YES"},{"_id":"55f7b52e54e630110066c592","bId":"41","sId":"44","sName":"گالري ساگالري ساعت صدف","bName":"TISSOT","bCategory":"ساعت","bDistributor":"شرکت ت بازرگانی کیش بهین","sCity":"کرج","sAddress":" ج","sAddress":" گلشهر ـ مركز تجاري اداري گلشهر ـ طبقه همكف ـ واحد45","sHours":"","sAreaCode":"026","sTel1":"33513188","sTel2":"","sLat":"35.8182187","sLong":"50.9361723","sVerified":"YES"},{"_id":"55f7b57454e630110066c594","bId":"41","sId":"45","sName":"فروشگاه عه عباسي","bName":"TISSOT","bCategory":"ساعت","bDistributor":"شرکت بازرگانی کیش بهین","sCity":"کرج","sAddress":"ابتداي خيابان شهيد بهشتي ـ جنب پاساژ فدك","sHours":"","sAreaCode":"026","sTel1":"32223225","sTel2":"","sLat":"35.812539","sLong":"51.006848","sVerified":"YES"},{"_id":"55f7bfd654e630110066c5b5","bId":"42","sId":"26","sName":"تهرانی","bName":"RADO","bCategory":"ساعت","bDistributor":"شرکت بازرت بازرگانی کیش بهین","sCity":"کرج","sAddress":"شهيد بهشتي ـ جهان شهر ـ روبروي مخابرات بين شهري ـ پلاك 1241","sHours":"","sAreaCode":"026","sTel1":"34414177","sTel2":"","sLat":"35.825564","sLong":"50.979639","sVerified":"YES"},{"_id":"55f7c00454e630110066c5b6","bId":"42","sId":"27","sName":"گالري ساعت صدف","bName":"RADO","bCategory":"ساعت","bDistributor":"شرکت بازرگانی کیش بهین","sCity":"کرج","sAddress":" گلشهر ـ مركز تجاري اداري گلشهر ـ طبقه همكف ـ واحد45","sHours":"","sAreaCode":"026","sTel1":"33513188","sTel2":"","sLat":"35.8182187","sLong":"50.9361723","sVerified":"YES"},{"_id":"55f7cba754e630110066c5ca","bId":"44","sId":"9","sName":"هاکوپیان","bName":"Hacoupian","bCategory":"پوشاک آقایان","bDistributor":"هاکوپیان","sCity":"کرج","sAddress":"عظيميه، بلوار طالقاني، روبروي صدا و سيما","sHours":"10~14,16~22","sAreaCode":"026","sTel1":"32518083","sTel2":"","sLat":"35.8434022","sLong":"51.0116779","sVerified":"NO"},{"_id":"55f7d18e54e630110066c5d5","bId":"45","sId":"8","sName":"گراد","bName":"GERAD","bCategory":"پوشاک آقایان","bDistributor":"گراد","sCity":"کـرج","sAddress":"خیابان طالقانی ،نرسیده به پل آزادگان تقاطع خیابان تقاطع خیابان مدنی","sHours":"10~14,17~22","sAreaCode":"026","sTel1":"34208963","sTel2":"","sLat":"35.829709","sLong":"50.996772","sVerified":"YES"},{"_id":"55f97155713d931100f5fe51","bId":"60","sId":"32","sName":"چرم مشهد","bName":"mashad leather","bCategory":"چرم","bDistributor":"چرم مشهد","sCity":"کرج","sAddress":"خیابان شهید بهشتی، نرسیده به چهارراه طالقانی، ابتدای پاساژ امید","sHours":"9:30~14,16~21:30","sAreaCode":"026","sTel1":"32265735","sTel2":"","sLat":"35.820759","sLong":"50.990196","sVerified":"YES"},{"_id":"55fa59d6f0e3d61100a00a3b","bId":"61","sId":"15","sName":"نوین چرم","bName":"novin leather","bCategory":"چرم","bDistributor":"نوین چرم","sCity":"کرج","sAddress":"مهرشهر، فاز یک، بلوار دانش، پلاک 30","sHours":"","sAreaCode":"026","sTel1":"33402151","sTel2":"","sLat":"35.806155","sLong":"50.914491","sVerified":"YES"},{"_id":"55fa5bf7f0e3d61100a00a3d","bId":"61","sId":"16","sName":"نوین چرم","bName":"novin leather","bCategory":"چرم","bDistributor":"نوین چرم","sCity":"کرج","sAddress":"میدان آزادگان به سمت میدبه سمت میدان طالقانبه سمت میدان طالقانی، جنب فروشگاه رفاه، برج سایه، طبقه همکف","sHours":"","sAreaCode":"026","sTel1":"32546273","sTel2":"","sLat":"35.8332469","sLong":"51.0003526","sVerified":"YES"},{"_id":"55fa5c1ff0e3d61100a00a3e","bId":"61","sId":"17","sName":"نوین چرم","bName":"novin leather","bCategory":"چرم","bDistributor":"نوین چرم","sCity":"کرج","sAddress":"جهانشهر، میدان لادن (هلال احمر)، جنب بانک تجارت","sHours":"","sAreaCode":"026","sTel1":"34477095","sTel2":"","sLat":"35.8256861","sLong":"50.9872377","sVerified":"YES"},{"_id":"55fa7c37f0e3d61100a00a47","bId":"62","sId":"4","sName":"پاندورا","bName":"PANDORA","bCategory":"چرم","bDistributor":"پاندورا","sCity":"کرج","sAddress":"بلوار طالقانی شمالی، نرسیده به پل آزادگان، برج آرین مال","sHours":"","sAreaCode":"026","sTel1":"32204078","sTel2":"","sLat":"35.829598","sLong":"50.997179","sVerified":"YES"},{"_id":"55fd02d020dbab1100f17426","bId":"68","sId":"4","sName":"جامعه","bName":"JAMEE","bCategory":"پوشاک آقایان","bDistributor":"جامعه","sCity":"کرج","sAddress":"خیابان شهید بهشتی – بین هلال احمر و دارایی","sHours":"","sAreaCode":"026","sTel1":"34486486","sTel2":"","sLat":"35.822609","sLong":"50.987528","sVerified":"YES"},{"_id":"55fe59ad333e921100bf3924","bId":"84","sId":"22","sName":"مه تل","bName":"Apple","bCategory":"موبایل","bDistributor":"مه تل","sCity":"کرج","sAddress":"میدان آزادگان ، طبقه فوقانی بانک ملت","sHours":"","sAreaCode":"026","sTel1":"32524208","sTel2":"","sLat":"35.8315937","sLong":"50.9987938","sVerified":"NO"},{"_id":"562359bbebc975110095c69c","bId":"182","sId":"10","sName":" فروشگاه پاسارد","bName":"ZEROTEN","bCategory":"لوازم و پوشاک کودک","bDistributor":"زیروتن","sCity":"کرج","sAddress":" نبش چهار راه طالقانی","sHours":"","sAreaCode":"026","sTel1":"34429349","sTel2":"","sLat":"35.821171","sLong":"50.990159","sVerified":"YES"},{"_id":"562361d9ebc975110095c6a6","bId":"184","sId":"4","sName":"سها","bName":"SOHA","bCategory":"لوازم و پوشاک کودک","bDistributor":"شرکت سها","sCity":"کرج","sAddress":"عظیمیه - میدان اسبی - مرکز خرید تکسا","sHours":"","sAreaCode":"026","sTel1":"32507070","sTel2":"","sLat":"35.8350666","sLong":"51.0182625","sVerified":"YES"}]