 [{"_id":"55f3cb66032ead1100a3cb42","bId":"3","sId":"11","sName":"benetton","bName":"Benetton","bCategory":"پوشاک","bDistributor":"کاسپین مد","sCity":"تبریز","sAddress":"خیابان ولیعصر، خیابان آذربایجان، روبروی بانك سامان، پلاك 16","sHours":"10~22","sAreaCode":"041","sTel1":"33292820","sTel2":"","sLat":"38.070477","sLong":"46.309321","sVerified":"YES"},{"_id":"55f3e24a032ead1100a3cb5d","bId":"7","sId":"8","sName":"MANGO","bName":"MANGO","bCategory":"پوشاک بانوان","bDistributor":"Fashion Aria mode","sCity":"تبریز","sAddress":"خیابان ولیعصر خیاخیابان ولیعصر خیابان کریمخان نبش مانتو پرویز","sHours":"","sAreaCode":"041","sTel1":"33328603","sTel2":"","sLat":"38.0547153","sLong":"46.3610364","sVerified":"YES"},{"_id":"55f40786032ead1100a3cbb2","bId":"21","sId":"7","sName":"PUMA","bName":"PUMA","bCategory":"پوشاک ورزشی","bDistributor":"","sCity":"مراغه","sAddress":"خیابان قدس ،روبروی بانک ملت پلاک41","sHours":"90:30~13:30,17~21:31","sAreaCode":"041","sTel1":"37221211","sTel2":"","sLat":"37.3894828","sLong":"46.236452","sVerified":"NO"},{"_id":"55f40915032ead1100a3cbb6","bId":"22","sId":"4","sName":"KOTON","bName":"KOTON","bCategory":"پوشاک","bDistributor":"","sCity":"تبریز","sAddress":"مجتمع تجاری لاله پارک ","sHours":"10~22","sAreaCode":"041","sTel1":"36600171","sTel2":"","sLat":"38.0723884","sLong":"46.3693777","sVerified":"NO"},{"_id":"55f937d5713d931100f5fe2e","bId":"59","sId":"13","sName":"درسا","bName":"DORSA","bCategory":"چرم","bDistributor":"درسا","sCity":"تبریز","sAddress":"خیابان ولیعصر-فلکه مخابرات-نبش کوچه امیرکرسا","sCity":"تبریز","sAddress":"خیابان ولیعصر-فلکه مخابرات-نبش کوچه امیرکبیر","sHours":"9:30~13:30,17~22","sAreaCode":"041","sTel1":"33296215","sTel2":"","sLat":"38.0559861","sLong":"46.3585281","sVerified":"YES"},{"_id":"55fa5cc0f0e3d61100a00a41","bId":"61","sId":"20","sName":"نوین چرم","bName":"novin leather","bCategory":"چرم","bDistributor":"نوین چرم","sCity":"تبریز","sAddress":"میدان فهمیده، مجتمع تجاری لاله پارک، واحد 22","sHours":"","sAreaCode":"041","sTel1":"36600308","sTel2":"","sLat":"38.0723885","sLong":"46.3693777","sVerified":"YES"},{"_id":"55fe5bbe333e921100bf392d","bId":"84","sId":"31","sName":"Apple Market","bName":"Apple","bCategory":"موبایل","bDistributor":"","sCity":"تبریز","sAddress":"خیابان امام , نرسیده به سه راه طالقانی مجتمع تجاری استاد شهریار , زیر همکف پلاک ۴۳","sHours":"","sAreaCode":"041","sTel1":"35544122","sTel2":"","sLat":"38.0740639","sLong":"46.2923008","sVerified":"NO"},{"_id":"55fe64ef333e921100bf3943","bId":"85","sId":"21","sName":"موبایل علیزاده","bName":"SAMSUNG","bCategory":"موبایل","bDistributor":"پارس سامتل","sCity":"تبریز","sAddress":"خیابان امام، چهار راه شریعتی، بازار کویتی ها، طبقه همکف، پلاک 112","sHours":"","sAreaCode":"041","sTel1":"35541594","sTel2":"","sLat":"38.07442","sLong":"46.287266","sVerified":"YES"},{"_id":"55fe651b333e921100bf3944","bId":"85","sId":"22","sName":"فروشگاه نمونه","bName":"SAMSUNG","bCategory":"موبایل","bDistributor":"پارس سامتل","sCity":"تبرسامتل","sCity":"تبریز","sAddress":"چهار راه شریعتی، بازار بزرگ شریعتی، پلاک 1","sHours":"","sAreaCode":"041","sTel1":"35546646","sTel2":"","sLat":"38.07442","sLong":"46.287266","sVerified":"YES"},{"_id":"55fe97a1333e921100bf3970","bId":"89","sId":"13","sName":"موبایل علیزاده","bName":"ZTE","bCategory":"موبایل","bDistributor":"پارس سامتل","sCity":"تبریز","sAddress":"خیابان امام، چهار راه شرر راه شریعتی، بار راه شریعتی، بازار کویتی ها، طبقه همکف، پلاک 112","sHours":"","sAreaCode":"041","sTel1":"35541594","sTel2":"","sLat":"38.07442","sLong":"46.287266","sVerified":"YES"},{"_id":"55fe97c9333e921100bf3971","bId":"89","sId":"14","sName":"فروشگاه نمونه","bName":"ZTE","bCategory":"موبایل","bDistributor":"پارس سامتل","sCity":"تبریز","sAddress":"چهار راه شار راه شریعتی، بازار بزرگ شریعتی، پلاک 1","sHours":"","sAreaCode":"041","sTel1":"35546646","sTel2":"","sLat":"38.07442","sLong":"46.287266","sVerified":"YES"},{"_id":"55fe9e9c333e921100bf3982","bId":"90","sId":"13","sName":"موبایل علیزاده","bName":"acer","bCategory":"موبایل","bDistributor":"پارس سامتل","sCity":"تبریز","sAddress":"خیابان اماممام، چهار راه شریعتی، بازار کویتی ها، طبکویتی ها، طبقه همکفکویتی ها، طبقه همکف، پلاک 112","sHours":"","sAreaCode":"041","sTel1":"35541594","sTel2":"","sLat":"38.07442","sLong":"46.287266","sVerified":"YES"},{"_id":"55fe9ed3333e921100bf3983","bId":"90","sId":"14","sName":"فروشگاه نمونه","bName":"acer","bCategory":"موبایل","bDistributor":"پارس سامتل","sCity":"تبریز","sAddress":"چهار راه شریه شریعتیه شریعتی، بازار بزرگ شریعیعتی، پلاک 1","sHours":"","sAreaCode":"041","sTel1":"35546646","sTel2":"","sLat":"38.07442","sLong":"46.287266","sVerified":"YES"}]